{
  "type": "FeatureCollection",
  "generator": "overpass-turbo",
  "copyright": "The data included in this document is from www.openstreetmap.org. The data is made available under ODbL.",
  "timestamp": "2025-07-06T03:00:08Z",
  "features": [
    {
      "type": "Feature",
      "properties": {
        "@id": "relation/1448142",
        "landuse": "forest",
        "type": "multipolygon",
        "@geometry": "center"
      },
      "geometry": {
        "type": "Point",
        "coordinates": [
          102.8222788,
          16.4378249
        ]
      },
      "id": "relation/1448142"
    },
    {
      "type": "Feature",
      "properties": {
        "@id": "relation/1535173",
        "landuse": "forest",
        "type": "multipolygon",
        "@geometry": "center"
      },
      "geometry": {
        "type": "Point",
        "coordinates": [
          102.9977898,
          16.0812494
        ]
      },
      "id": "relation/1535173"
    },
    {
      "type": "Feature",
      "properties": {
        "@id": "relation/1537412",
        "landuse": "forest",
        "type": "multipolygon",
        "@geometry": "center"
      },
      "geometry": {
        "type": "Point",
        "coordinates": [
          103.0652942,
          16.0456008
        ]
      },
      "id": "relation/1537412"
    },
    {
      "type": "Feature",
      "properties": {
        "@id": "relation/1537635",
        "landuse": "forest",
        "type": "multipolygon",
        "@geometry": "center"
      },
      "geometry": {
        "type": "Point",
        "coordinates": [
          103.0894291,
          15.790528
        ]
      },
      "id": "relation/1537635"
    },
    {
      "type": "Feature",
      "properties": {
        "@id": "relation/1537636",
        "landuse": "forest",
        "type": "multipolygon",
        "@geometry": "center"
      },
      "geometry": {
        "type": "Point",
        "coordinates": [
          103.0970796,
          15.785405
        ]
      },
      "id": "relation/1537636"
    },
    {
      "type": "Feature",
      "properties": {
        "@id": "relation/1537637",
        "landuse": "forest",
        "type": "multipolygon",
        "@geometry": "center"
      },
      "geometry": {
        "type": "Point",
        "coordinates": [
          103.230034,
          15.7004355
        ]
      },
      "id": "relation/1537637"
    },
    {
      "type": "Feature",
      "properties": {
        "@id": "relation/1542973",
        "landuse": "forest",
        "type": "multipolygon",
        "@geometry": "center"
      },
      "geometry": {
        "type": "Point",
        "coordinates": [
          103.5413017,
          15.8536332
        ]
      },
      "id": "relation/1542973"
    },
    {
      "type": "Feature",
      "properties": {
        "@id": "relation/1547578",
        "landuse": "forest",
        "type": "multipolygon",
        "@geometry": "center"
      },
      "geometry": {
        "type": "Point",
        "coordinates": [
          103.2962206,
          16.1035977
        ]
      },
      "id": "relation/1547578"
    },
    {
      "type": "Feature",
      "properties": {
        "@id": "relation/1550316",
        "landuse": "forest",
        "type": "multipolygon",
        "@geometry": "center"
      },
      "geometry": {
        "type": "Point",
        "coordinates": [
          103.3951807,
          15.8341328
        ]
      },
      "id": "relation/1550316"
    },
    {
      "type": "Feature",
      "properties": {
        "@id": "relation/1558252",
        "landuse": "forest",
        "type": "multipolygon",
        "@geometry": "center"
      },
      "geometry": {
        "type": "Point",
        "coordinates": [
          103.1978304,
          16.3272587
        ]
      },
      "id": "relation/1558252"
    },
    {
      "type": "Feature",
      "properties": {
        "@id": "relation/1558253",
        "landuse": "forest",
        "name": "วัดป่ากู่แก้ว",
        "name:en": "Wat Pa Ku Kaeo",
        "source": "Bing;sign",
        "type": "multipolygon",
        "@geometry": "center"
      },
      "geometry": {
        "type": "Point",
        "coordinates": [
          103.2498639,
          16.2530394
        ]
      },
      "id": "relation/1558253"
    },
    {
      "type": "Feature",
      "properties": {
        "@id": "relation/1558254",
        "landuse": "forest",
        "type": "multipolygon",
        "@geometry": "center"
      },
      "geometry": {
        "type": "Point",
        "coordinates": [
          103.1188448,
          16.2221531
        ]
      },
      "id": "relation/1558254"
    },
    {
      "type": "Feature",
      "properties": {
        "@id": "relation/1567131",
        "landuse": "forest",
        "type": "multipolygon",
        "@geometry": "center"
      },
      "geometry": {
        "type": "Point",
        "coordinates": [
          102.6106288,
          16.4530424
        ]
      },
      "id": "relation/1567131"
    },
    {
      "type": "Feature",
      "properties": {
        "@id": "relation/1571699",
        "landuse": "forest",
        "type": "multipolygon",
        "@geometry": "center"
      },
      "geometry": {
        "type": "Point",
        "coordinates": [
          101.2432703,
          16.8628756
        ]
      },
      "id": "relation/1571699"
    },
    {
      "type": "Feature",
      "properties": {
        "@id": "relation/1576891",
        "landuse": "forest",
        "type": "multipolygon",
        "@geometry": "center"
      },
      "geometry": {
        "type": "Point",
        "coordinates": [
          100.0978544,
          17.1378908
        ]
      },
      "id": "relation/1576891"
    },
    {
      "type": "Feature",
      "properties": {
        "@id": "relation/1576893",
        "landuse": "forest",
        "type": "multipolygon",
        "@geometry": "center"
      },
      "geometry": {
        "type": "Point",
        "coordinates": [
          100.0736364,
          17.2647309
        ]
      },
      "id": "relation/1576893"
    },
    {
      "type": "Feature",
      "properties": {
        "@id": "relation/1576894",
        "landuse": "forest",
        "type": "multipolygon",
        "@geometry": "center"
      },
      "geometry": {
        "type": "Point",
        "coordinates": [
          100.1643568,
          17.0508811
        ]
      },
      "id": "relation/1576894"
    },
    {
      "type": "Feature",
      "properties": {
        "@id": "relation/1580747",
        "landuse": "forest",
        "type": "multipolygon",
        "@geometry": "center"
      },
      "geometry": {
        "type": "Point",
        "coordinates": [
          100.1504726,
          17.6777849
        ]
      },
      "id": "relation/1580747"
    },
    {
      "type": "Feature",
      "properties": {
        "@id": "relation/1598989",
        "landuse": "forest",
        "type": "multipolygon",
        "@geometry": "center"
      },
      "geometry": {
        "type": "Point",
        "coordinates": [
          100.7345678,
          18.8016664
        ]
      },
      "id": "relation/1598989"
    },
    {
      "type": "Feature",
      "properties": {
        "@id": "relation/1600441",
        "landuse": "forest",
        "type": "multipolygon",
        "@geometry": "center"
      },
      "geometry": {
        "type": "Point",
        "coordinates": [
          100.7430687,
          18.6953143
        ]
      },
      "id": "relation/1600441"
    },
    {
      "type": "Feature",
      "properties": {
        "@id": "relation/1612781",
        "landuse": "forest",
        "type": "multipolygon",
        "@geometry": "center"
      },
      "geometry": {
        "type": "Point",
        "coordinates": [
          101.7361947,
          17.4785634
        ]
      },
      "id": "relation/1612781"
    },
    {
      "type": "Feature",
      "properties": {
        "@id": "relation/1615250",
        "landuse": "forest",
        "type": "multipolygon",
        "@geometry": "center"
      },
      "geometry": {
        "type": "Point",
        "coordinates": [
          102.3573235,
          16.9047089
        ]
      },
      "id": "relation/1615250"
    },
    {
      "type": "Feature",
      "properties": {
        "@id": "relation/1616525",
        "addr:district": "บ้านฝาง",
        "addr:district:en": "Ban Fang",
        "addr:province": "ขอนแก่น",
        "addr:province:en": "Khon Kaen",
        "addr:subdistrict": "ป่ามะนาว",
        "addr:subdistrict:en": "Pa Manao",
        "landuse": "forest",
        "name": "วัดป่าจตรคามบำรุง",
        "name:en": "Wat Pa Chaton Kham Bamrung",
        "source": "Bing; sign",
        "type": "multipolygon",
        "@geometry": "center"
      },
      "geometry": {
        "type": "Point",
        "coordinates": [
          102.602248,
          16.3706246
        ]
      },
      "id": "relation/1616525"
    },
    {
      "type": "Feature",
      "properties": {
        "@id": "relation/1617831",
        "addr:district": "มัญจาคีรี",
        "addr:district:en": "Mancha Khiri",
        "addr:hamlet": "หมู่ที่ 5",
        "addr:province": "ขอนแก่น",
        "addr:province:en": "Khon Kaen",
        "addr:subdistrict": "หนองแปน",
        "addr:subdistrict:en": "Nong Paen",
        "landuse": "forest",
        "name": "วัดป่าโนนสำนัก",
        "name:en": "Wat Pa Non Samnak",
        "source": "Bing; sign",
        "type": "multipolygon",
        "@geometry": "center"
      },
      "geometry": {
        "type": "Point",
        "coordinates": [
          102.592116,
          16.1576338
        ]
      },
      "id": "relation/1617831"
    },
    {
      "type": "Feature",
      "properties": {
        "@id": "relation/1620195",
        "landuse": "forest",
        "type": "multipolygon",
        "@geometry": "center"
      },
      "geometry": {
        "type": "Point",
        "coordinates": [
          102.4326959,
          16.155606
        ]
      },
      "id": "relation/1620195"
    },
    {
      "type": "Feature",
      "properties": {
        "@id": "relation/1620375",
        "landuse": "forest",
        "type": "multipolygon",
        "@geometry": "center"
      },
      "geometry": {
        "type": "Point",
        "coordinates": [
          102.3266108,
          16.2304162
        ]
      },
      "id": "relation/1620375"
    },
    {
      "type": "Feature",
      "properties": {
        "@id": "relation/1623133",
        "landuse": "forest",
        "type": "multipolygon",
        "@geometry": "center"
      },
      "geometry": {
        "type": "Point",
        "coordinates": [
          102.248042,
          16.1687627
        ]
      },
      "id": "relation/1623133"
    },
    {
      "type": "Feature",
      "properties": {
        "@id": "relation/1625504",
        "landuse": "forest",
        "type": "multipolygon",
        "@geometry": "center"
      },
      "geometry": {
        "type": "Point",
        "coordinates": [
          102.3989353,
          16.3912225
        ]
      },
      "id": "relation/1625504"
    },
    {
      "type": "Feature",
      "properties": {
        "@id": "relation/1625505",
        "landuse": "forest",
        "type": "multipolygon",
        "@geometry": "center"
      },
      "geometry": {
        "type": "Point",
        "coordinates": [
          102.4196666,
          16.4359167
        ]
      },
      "id": "relation/1625505"
    },
    {
      "type": "Feature",
      "properties": {
        "@id": "relation/1625506",
        "addr:district": "หนองเรือ",
        "addr:district:en": "Nong Ruea",
        "addr:province": "ขอนแก่น",
        "addr:province:en": "Khon Kaen",
        "addr:subdistrict": "บ้านเม็ง",
        "addr:subdistrict:en": "Ban Meng",
        "landuse": "forest",
        "name": "วัดป่าอร์ญญวิโมกบ์",
        "name:en": "Wat Pa A Yon Wi Mok",
        "source": "Bing; sign",
        "type": "multipolygon",
        "@geometry": "center"
      },
      "geometry": {
        "type": "Point",
        "coordinates": [
          102.4507171,
          16.4548843
        ]
      },
      "id": "relation/1625506"
    },
    {
      "type": "Feature",
      "properties": {
        "@id": "relation/1625507",
        "landuse": "forest",
        "type": "multipolygon",
        "@geometry": "center"
      },
      "geometry": {
        "type": "Point",
        "coordinates": [
          102.4249145,
          16.4391273
        ]
      },
      "id": "relation/1625507"
    },
    {
      "type": "Feature",
      "properties": {
        "@id": "relation/1625508",
        "landuse": "forest",
        "type": "multipolygon",
        "@geometry": "center"
      },
      "geometry": {
        "type": "Point",
        "coordinates": [
          102.3475378,
          16.4040461
        ]
      },
      "id": "relation/1625508"
    },
    {
      "type": "Feature",
      "properties": {
        "@id": "relation/1641403",
        "addr:district": "โนนสัง",
        "addr:district:en": "Non Sang",
        "addr:hamlet": "หมู่ที่ 2",
        "addr:province": "หนองบัวลำภู",
        "addr:province:en": "Nong Bua Lam Phu",
        "addr:subdistrict": "โคกม่วง",
        "addr:subdistrict:en": "Khok Muang",
        "landuse": "forest",
        "name": "วัดป่าโคกศรีเรือง",
        "name:en": "Wat Pa Khok Si Rueang",
        "source": "Bing; sign",
        "type": "multipolygon",
        "@geometry": "center"
      },
      "geometry": {
        "type": "Point",
        "coordinates": [
          102.384839,
          16.8785751
        ]
      },
      "id": "relation/1641403"
    },
    {
      "type": "Feature",
      "properties": {
        "@id": "relation/1641404",
        "landuse": "forest",
        "type": "multipolygon",
        "@geometry": "center"
      },
      "geometry": {
        "type": "Point",
        "coordinates": [
          102.3764999,
          16.9508508
        ]
      },
      "id": "relation/1641404"
    },
    {
      "type": "Feature",
      "properties": {
        "@id": "relation/1648341",
        "landuse": "forest",
        "type": "multipolygon",
        "@geometry": "center"
      },
      "geometry": {
        "type": "Point",
        "coordinates": [
          102.8191957,
          16.996518
        ]
      },
      "id": "relation/1648341"
    },
    {
      "type": "Feature",
      "properties": {
        "@id": "relation/1648342",
        "landuse": "forest",
        "type": "multipolygon",
        "@geometry": "center"
      },
      "geometry": {
        "type": "Point",
        "coordinates": [
          102.7778105,
          17.1023861
        ]
      },
      "id": "relation/1648342"
    },
    {
      "type": "Feature",
      "properties": {
        "@id": "relation/1648444",
        "landuse": "forest",
        "type": "multipolygon",
        "@geometry": "center"
      },
      "geometry": {
        "type": "Point",
        "coordinates": [
          102.7822733,
          17.1674008
        ]
      },
      "id": "relation/1648444"
    },
    {
      "type": "Feature",
      "properties": {
        "@id": "relation/1651634",
        "landuse": "forest",
        "type": "multipolygon",
        "@geometry": "center"
      },
      "geometry": {
        "type": "Point",
        "coordinates": [
          102.5691722,
          17.2263529
        ]
      },
      "id": "relation/1651634"
    },
    {
      "type": "Feature",
      "properties": {
        "@id": "relation/1654060",
        "landuse": "forest",
        "type": "multipolygon",
        "@geometry": "center"
      },
      "geometry": {
        "type": "Point",
        "coordinates": [
          103.1874897,
          17.3086765
        ]
      },
      "id": "relation/1654060"
    },
    {
      "type": "Feature",
      "properties": {
        "@id": "relation/1658167",
        "landuse": "forest",
        "type": "multipolygon",
        "@geometry": "center"
      },
      "geometry": {
        "type": "Point",
        "coordinates": [
          102.7903244,
          16.7415301
        ]
      },
      "id": "relation/1658167"
    },
    {
      "type": "Feature",
      "properties": {
        "@id": "relation/1658168",
        "landuse": "forest",
        "type": "multipolygon",
        "@geometry": "center"
      },
      "geometry": {
        "type": "Point",
        "coordinates": [
          102.797136,
          16.6314303
        ]
      },
      "id": "relation/1658168"
    },
    {
      "type": "Feature",
      "properties": {
        "@id": "relation/1663554",
        "landuse": "forest",
        "type": "multipolygon",
        "@geometry": "center"
      },
      "geometry": {
        "type": "Point",
        "coordinates": [
          102.7688431,
          16.0720557
        ]
      },
      "id": "relation/1663554"
    },
    {
      "type": "Feature",
      "properties": {
        "@id": "relation/1663555",
        "landuse": "forest",
        "type": "multipolygon",
        "@geometry": "center"
      },
      "geometry": {
        "type": "Point",
        "coordinates": [
          102.8318171,
          16.0421774
        ]
      },
      "id": "relation/1663555"
    },
    {
      "type": "Feature",
      "properties": {
        "@id": "relation/1685878",
        "landuse": "forest",
        "type": "multipolygon",
        "@geometry": "center"
      },
      "geometry": {
        "type": "Point",
        "coordinates": [
          102.8910753,
          16.6877309
        ]
      },
      "id": "relation/1685878"
    },
    {
      "type": "Feature",
      "properties": {
        "@id": "relation/1685951",
        "addr:district": "น้ำพอง",
        "addr:district:en": "Nam Phong",
        "addr:hamlet": "หมู่ที่ 6",
        "addr:province": "ขอนแก่น",
        "addr:province:en": "Khon Kaen",
        "addr:subdistrict": "ม่วงหวาน",
        "addr:subdistrict:en": "Muang Wan",
        "landuse": "forest",
        "name": "วัดสคนร์สาม์คคี",
        "name:en": "Wat Sakhon Sa Khi",
        "source": "Bing; sign",
        "type": "multipolygon",
        "@geometry": "center"
      },
      "geometry": {
        "type": "Point",
        "coordinates": [
          102.8165909,
          16.6526745
        ]
      },
      "id": "relation/1685951"
    },
    {
      "type": "Feature",
      "properties": {
        "@id": "relation/1687285",
        "landuse": "forest",
        "type": "multipolygon",
        "@geometry": "center"
      },
      "geometry": {
        "type": "Point",
        "coordinates": [
          102.765031,
          16.6639279
        ]
      },
      "id": "relation/1687285"
    },
    {
      "type": "Feature",
      "properties": {
        "@id": "relation/1687286",
        "landuse": "forest",
        "source": "Bing",
        "type": "multipolygon",
        "@geometry": "center"
      },
      "geometry": {
        "type": "Point",
        "coordinates": [
          102.7151873,
          16.6738971
        ]
      },
      "id": "relation/1687286"
    },
    {
      "type": "Feature",
      "properties": {
        "@id": "relation/1689870",
        "landuse": "forest",
        "type": "multipolygon",
        "@geometry": "center"
      },
      "geometry": {
        "type": "Point",
        "coordinates": [
          103.0226995,
          16.6300377
        ]
      },
      "id": "relation/1689870"
    },
    {
      "type": "Feature",
      "properties": {
        "@id": "relation/1695098",
        "amenity": "place_of_worship",
        "landuse": "forest",
        "religion": "buddhist",
        "source": "Bing",
        "type": "multipolygon",
        "@geometry": "center"
      },
      "geometry": {
        "type": "Point",
        "coordinates": [
          103.1335763,
          16.6356371
        ]
      },
      "id": "relation/1695098"
    },
    {
      "type": "Feature",
      "properties": {
        "@id": "relation/1695099",
        "amenity": "place_of_worship",
        "landuse": "forest",
        "religion": "buddhist",
        "source": "Bing",
        "type": "multipolygon",
        "@geometry": "center"
      },
      "geometry": {
        "type": "Point",
        "coordinates": [
          103.1446103,
          16.660973
        ]
      },
      "id": "relation/1695099"
    },
    {
      "type": "Feature",
      "properties": {
        "@id": "relation/1700952",
        "landuse": "forest",
        "type": "multipolygon",
        "@geometry": "center"
      },
      "geometry": {
        "type": "Point",
        "coordinates": [
          103.7754443,
          16.0078433
        ]
      },
      "id": "relation/1700952"
    },
    {
      "type": "Feature",
      "properties": {
        "@id": "relation/1707726",
        "landuse": "forest",
        "type": "multipolygon",
        "@geometry": "center"
      },
      "geometry": {
        "type": "Point",
        "coordinates": [
          101.7732459,
          15.1391516
        ]
      },
      "id": "relation/1707726"
    },
    {
      "type": "Feature",
      "properties": {
        "@id": "relation/1713375",
        "landuse": "forest",
        "type": "multipolygon",
        "@geometry": "center"
      },
      "geometry": {
        "type": "Point",
        "coordinates": [
          102.9472085,
          16.3524812
        ]
      },
      "id": "relation/1713375"
    },
    {
      "type": "Feature",
      "properties": {
        "@id": "relation/1812817",
        "landuse": "forest",
        "type": "multipolygon",
        "@geometry": "center"
      },
      "geometry": {
        "type": "Point",
        "coordinates": [
          102.6449304,
          16.5895749
        ]
      },
      "id": "relation/1812817"
    },
    {
      "type": "Feature",
      "properties": {
        "@id": "relation/1812819",
        "landuse": "forest",
        "name": "วัดป่าสันติภาพวนาราม",
        "name:en": "Wat Pa Santiphap Wana Ram",
        "type": "multipolygon",
        "@geometry": "center"
      },
      "geometry": {
        "type": "Point",
        "coordinates": [
          102.5928133,
          16.5006806
        ]
      },
      "id": "relation/1812819"
    },
    {
      "type": "Feature",
      "properties": {
        "@id": "relation/1834575",
        "landuse": "forest",
        "type": "multipolygon",
        "@geometry": "center"
      },
      "geometry": {
        "type": "Point",
        "coordinates": [
          102.5859098,
          16.4548039
        ]
      },
      "id": "relation/1834575"
    },
    {
      "type": "Feature",
      "properties": {
        "@id": "relation/1837476",
        "landuse": "forest",
        "type": "multipolygon",
        "@geometry": "center"
      },
      "geometry": {
        "type": "Point",
        "coordinates": [
          102.5999313,
          16.3688809
        ]
      },
      "id": "relation/1837476"
    },
    {
      "type": "Feature",
      "properties": {
        "@id": "relation/1837477",
        "addr:district": "บ้านฝาง",
        "addr:district:en": "Ban Fang",
        "addr:hamlet": "หมู่ที่ 10",
        "addr:province": "ขอนแก่น",
        "addr:province:en": "Khon Kaen",
        "addr:subdistrict": "โนนฆ้อง",
        "addr:subdistrict:en": "Non Khong",
        "landuse": "forest",
        "name": "วัดป่าเทพนิมิตรวราราม",
        "name:en": "Wat Pa Thep Ni Mit Wara Ram",
        "source": "Bing; sign",
        "type": "multipolygon",
        "@geometry": "center"
      },
      "geometry": {
        "type": "Point",
        "coordinates": [
          102.5804025,
          16.4003616
        ]
      },
      "id": "relation/1837477"
    },
    {
      "type": "Feature",
      "properties": {
        "@id": "relation/1837523",
        "landuse": "forest",
        "type": "multipolygon",
        "@geometry": "center"
      },
      "geometry": {
        "type": "Point",
        "coordinates": [
          102.5800318,
          16.3498217
        ]
      },
      "id": "relation/1837523"
    },
    {
      "type": "Feature",
      "properties": {
        "@id": "relation/1838859",
        "landuse": "forest",
        "type": "multipolygon",
        "@geometry": "center"
      },
      "geometry": {
        "type": "Point",
        "coordinates": [
          102.7079633,
          16.3819323
        ]
      },
      "id": "relation/1838859"
    },
    {
      "type": "Feature",
      "properties": {
        "@id": "relation/1845863",
        "landuse": "forest",
        "type": "multipolygon",
        "@geometry": "center"
      },
      "geometry": {
        "type": "Point",
        "coordinates": [
          102.5944394,
          16.486233
        ]
      },
      "id": "relation/1845863"
    },
    {
      "type": "Feature",
      "properties": {
        "@id": "relation/1845864",
        "addr:district": "บ้านฝาง",
        "addr:district:en": "Ban Fang",
        "addr:hamlet": "หมู่ที่ 4",
        "addr:province": "ขอนแก่น",
        "addr:province:en": "Khon Kaen",
        "addr:subdistrict": "หนองบัว",
        "addr:subdistrict:en": "Nong Bua",
        "landuse": "forest",
        "name": "วัดท่าประชุม",
        "name:en": "Wat Tha Prachum",
        "source": "Bing; sign",
        "type": "multipolygon",
        "@geometry": "center"
      },
      "geometry": {
        "type": "Point",
        "coordinates": [
          102.5773531,
          16.4823535
        ]
      },
      "id": "relation/1845864"
    },
    {
      "type": "Feature",
      "properties": {
        "@id": "relation/1845865",
        "addr:district": "บ้านฝาง",
        "addr:district:en": "Ban Fang",
        "addr:province": "ขอนแก่น",
        "addr:province:en": "Khon Kaen",
        "addr:subdistrict": "หนองบัว",
        "addr:subdistrict:en": "Nong Bua",
        "landuse": "forest",
        "name": "วัดป่าสัจเวชธรรมมาราม",
        "name:en": "Wat Pa Sat Wet Tham Ma Ram",
        "source": "Bing; sign",
        "type": "multipolygon",
        "@geometry": "center"
      },
      "geometry": {
        "type": "Point",
        "coordinates": [
          102.5886936,
          16.4838983
        ]
      },
      "id": "relation/1845865"
    },
    {
      "type": "Feature",
      "properties": {
        "@id": "relation/1848850",
        "addr:district": "หนองเรือ",
        "addr:district:en": "Nong Ruea",
        "addr:hamlet": "หมู่ที่ 6",
        "addr:province": "ขอนแก่น",
        "addr:province:en": "Khon Kaen",
        "addr:subdistrict": "ยางคำ",
        "addr:subdistrict:en": "Yang Kham",
        "landuse": "forest",
        "name": "วัดป่าคีรีวันสันติธรรม",
        "name:en": "Wat Pa Khiri Wan Santi Tham",
        "source": "Bing; sign",
        "type": "multipolygon",
        "@geometry": "center"
      },
      "geometry": {
        "type": "Point",
        "coordinates": [
          102.5117269,
          16.3908214
        ]
      },
      "id": "relation/1848850"
    },
    {
      "type": "Feature",
      "properties": {
        "@id": "relation/1848852",
        "addr:district": "หนองเรือ",
        "addr:district:en": "Nong Ruea",
        "addr:province": "ขอนแก่น",
        "addr:province:en": "Khon Kaen",
        "addr:subdistrict": "ยางคำ",
        "addr:subdistrict:en": "Yang Kham",
        "landuse": "forest",
        "name": "วัดป่าหนองแดง",
        "name:en": "Wat Pa Nong Daeng",
        "source": "Bing; sign",
        "type": "multipolygon",
        "@geometry": "center"
      },
      "geometry": {
        "type": "Point",
        "coordinates": [
          102.4979066,
          16.4253549
        ]
      },
      "id": "relation/1848852"
    },
    {
      "type": "Feature",
      "properties": {
        "@id": "relation/1851630",
        "addr:district": "หนองเรือ",
        "addr:district:en": "Nong Ruea",
        "addr:province": "ขอนแก่น",
        "addr:province:en": "Khon Kaen",
        "addr:subdistrict": "หนองเรือ",
        "addr:subdistrict:en": "Nong Ruea",
        "landuse": "forest",
        "name": "วัดป่าธรรมนิมิต",
        "name:en": "Wat Pa Tham Nimit",
        "source": "Bing; sign",
        "type": "multipolygon",
        "@geometry": "center"
      },
      "geometry": {
        "type": "Point",
        "coordinates": [
          102.4645334,
          16.5157194
        ]
      },
      "id": "relation/1851630"
    },
    {
      "type": "Feature",
      "properties": {
        "@id": "relation/1851631",
        "addr:district": "หนองเรือ",
        "addr:district:en": "Nong Ruea",
        "addr:province": "ขอนแก่น",
        "addr:province:en": "Khon Kaen",
        "addr:subdistrict": "บ้านผือ",
        "addr:subdistrict:en": "Ban Phue",
        "landuse": "forest",
        "name": "วัดป่าปภาโส",
        "name:en": "Wat Pa Papha So",
        "source": "Bing; sign",
        "type": "multipolygon",
        "@geometry": "center"
      },
      "geometry": {
        "type": "Point",
        "coordinates": [
          102.5565371,
          16.5396695
        ]
      },
      "id": "relation/1851631"
    },
    {
      "type": "Feature",
      "properties": {
        "@id": "relation/1851639",
        "landuse": "forest",
        "source": "Bing",
        "type": "multipolygon",
        "@geometry": "center"
      },
      "geometry": {
        "type": "Point",
        "coordinates": [
          102.5652696,
          16.4888093
        ]
      },
      "id": "relation/1851639"
    },
    {
      "type": "Feature",
      "properties": {
        "@id": "relation/1863224",
        "addr:district": "หนองเรือ",
        "addr:district:en": "Nong Ruea",
        "addr:province": "ขอนแก่น",
        "addr:province:en": "Khon Kaen",
        "landuse": "forest",
        "name": "วัดป่าห้วยน้ำเงินสันติธรรม",
        "name:en": "Wat Pa Huai Namngoen Santi Tham",
        "source": "Bing; sign",
        "type": "multipolygon",
        "@geometry": "center"
      },
      "geometry": {
        "type": "Point",
        "coordinates": [
          102.4119107,
          16.5731208
        ]
      },
      "id": "relation/1863224"
    },
    {
      "type": "Feature",
      "properties": {
        "@id": "relation/1867370",
        "landuse": "forest",
        "source": "Bing",
        "type": "multipolygon",
        "@geometry": "center"
      },
      "geometry": {
        "type": "Point",
        "coordinates": [
          102.3669263,
          16.6553515
        ]
      },
      "id": "relation/1867370"
    },
    {
      "type": "Feature",
      "properties": {
        "@id": "relation/1867371",
        "landuse": "forest",
        "source": "Bing",
        "type": "multipolygon",
        "@geometry": "center"
      },
      "geometry": {
        "type": "Point",
        "coordinates": [
          102.3908665,
          16.6068638
        ]
      },
      "id": "relation/1867371"
    },
    {
      "type": "Feature",
      "properties": {
        "@id": "relation/1867372",
        "landuse": "forest",
        "source": "Bing; sign",
        "type": "multipolygon",
        "@geometry": "center"
      },
      "geometry": {
        "type": "Point",
        "coordinates": [
          102.3721483,
          16.6257681
        ]
      },
      "id": "relation/1867372"
    },
    {
      "type": "Feature",
      "properties": {
        "@id": "relation/1867375",
        "addr:district": "ภูเวียง",
        "addr:district:en": "Phu Wiang",
        "addr:hamlet": "หมู่ที่ 2",
        "addr:province": "ขอนแก่น",
        "addr:province:en": "Khon Kaen",
        "addr:subdistrict": "สงเปือย",
        "addr:subdistrict:en": "Song Pueai",
        "landuse": "forest",
        "name": "วัดบริบูรณ์วราราม",
        "name:en": "Wat Boribun Wara Ram",
        "source": "Bing; sign",
        "type": "multipolygon",
        "@geometry": "center"
      },
      "geometry": {
        "type": "Point",
        "coordinates": [
          102.3661259,
          16.6300326
        ]
      },
      "id": "relation/1867375"
    },
    {
      "type": "Feature",
      "properties": {
        "@id": "relation/1870749",
        "landuse": "forest",
        "source": "Bing",
        "type": "multipolygon",
        "@geometry": "center"
      },
      "geometry": {
        "type": "Point",
        "coordinates": [
          102.2789832,
          16.5312978
        ]
      },
      "id": "relation/1870749"
    },
    {
      "type": "Feature",
      "properties": {
        "@id": "relation/1870750",
        "landuse": "forest",
        "source": "Bing",
        "type": "multipolygon",
        "@geometry": "center"
      },
      "geometry": {
        "type": "Point",
        "coordinates": [
          102.2541556,
          16.5783232
        ]
      },
      "id": "relation/1870750"
    },
    {
      "type": "Feature",
      "properties": {
        "@id": "relation/1870756",
        "addr:district": "ชุมแพ",
        "addr:district:en": "Chum Phae",
        "addr:province": "ขอนแก่น",
        "addr:province:en": "Khon Kaen",
        "addr:subdistrict": "หนองเสาเล้า",
        "addr:subdistrict:en": "Nong Sao Lao",
        "landuse": "forest",
        "name": "สำนักสงฆ์ อาสาพัหบุชาวาสพระธาตุโนนพระ",
        "name:en": "Residence of Monk Asa Pha Bu Cha Wat Phra That Non Phra",
        "source": "Bing; sign",
        "type": "multipolygon",
        "@geometry": "center"
      },
      "geometry": {
        "type": "Point",
        "coordinates": [
          102.283069,
          16.5780193
        ]
      },
      "id": "relation/1870756"
    },
    {
      "type": "Feature",
      "properties": {
        "@id": "relation/1877619",
        "landuse": "forest",
        "source": "Bing",
        "type": "multipolygon",
        "@geometry": "center"
      },
      "geometry": {
        "type": "Point",
        "coordinates": [
          102.3243055,
          16.4709109
        ]
      },
      "id": "relation/1877619"
    },
    {
      "type": "Feature",
      "properties": {
        "@id": "relation/1879486",
        "landuse": "forest",
        "source": "Bing",
        "type": "multipolygon",
        "@geometry": "center"
      },
      "geometry": {
        "type": "Point",
        "coordinates": [
          102.2719743,
          16.4840344
        ]
      },
      "id": "relation/1879486"
    },
    {
      "type": "Feature",
      "properties": {
        "@id": "relation/1879525",
        "landuse": "forest",
        "source": "Bing",
        "type": "multipolygon",
        "@geometry": "center"
      },
      "geometry": {
        "type": "Point",
        "coordinates": [
          102.2918595,
          16.5153169
        ]
      },
      "id": "relation/1879525"
    },
    {
      "type": "Feature",
      "properties": {
        "@id": "relation/1887746",
        "addr:district": "ชุมแพ",
        "addr:district:en": "Chum Phae",
        "addr:province": "ขอนแก่น",
        "addr:province:en": "Khon Kaen",
        "addr:subdistrict": "โนนอุดม",
        "addr:subdistrict:en": "Non Udom",
        "landuse": "forest",
        "name": "วัดป่าสันติประชาสรรค์",
        "name:en": "Wat Pa Santi Pracha San",
        "source": "Bing; sign",
        "type": "multipolygon",
        "@geometry": "center"
      },
      "geometry": {
        "type": "Point",
        "coordinates": [
          102.1752353,
          16.5110514
        ]
      },
      "id": "relation/1887746"
    },
    {
      "type": "Feature",
      "properties": {
        "@id": "relation/1887747",
        "addr:district": "ชุมแพ",
        "addr:district:en": "Chum Phae",
        "addr:province": "ขอนแก่น",
        "addr:province:en": "Khon Kaen",
        "addr:subdistrict": "โนนอุดม",
        "addr:subdistrict:en": "Non Udom",
        "landuse": "forest",
        "name": "วัดป่าโนนอุดม",
        "name:en": "Wat Pa Non Udom",
        "source": "Bing; sign",
        "type": "multipolygon",
        "@geometry": "center"
      },
      "geometry": {
        "type": "Point",
        "coordinates": [
          102.2219543,
          16.5097459
        ]
      },
      "id": "relation/1887747"
    },
    {
      "type": "Feature",
      "properties": {
        "@id": "relation/1895095",
        "landuse": "forest",
        "type": "multipolygon",
        "@geometry": "center"
      },
      "geometry": {
        "type": "Point",
        "coordinates": [
          102.3273879,
          16.5786603
        ]
      },
      "id": "relation/1895095"
    },
    {
      "type": "Feature",
      "properties": {
        "@id": "relation/1895099",
        "addr:district": "หนองเรือ",
        "addr:district:en": "Nong Ruea",
        "addr:hamlet": "หมู่ที่ 12",
        "addr:province": "ขอนแก่น",
        "addr:province:en": "Khon Kaen",
        "addr:subdistrict": "โนนสะอาด",
        "addr:subdistrict:en": "Non Sa-at",
        "landuse": "forest",
        "name": "วัดสว่างศีลธรรม",
        "name:en": "Wat Sawang Sin Tham",
        "source": "Bing; sign",
        "type": "multipolygon",
        "@geometry": "center"
      },
      "geometry": {
        "type": "Point",
        "coordinates": [
          102.293334,
          16.5259622
        ]
      },
      "id": "relation/1895099"
    },
    {
      "type": "Feature",
      "properties": {
        "@id": "relation/1895100",
        "addr:district": "ชุมแพ",
        "addr:district:en": "Chum Phae",
        "addr:hamlet": "หมู่ที่ 1",
        "addr:province": "ขอนแก่น",
        "addr:province:en": "Khon Kaen",
        "addr:subdistrict": "โนนอุดม",
        "addr:subdistrict:en": "Non Udom",
        "landuse": "forest",
        "name": "วัดอรัญญาวาส",
        "name:en": "Wat Aran Ya Wat",
        "source": "Bing; sign",
        "type": "multipolygon",
        "@geometry": "center"
      },
      "geometry": {
        "type": "Point",
        "coordinates": [
          102.2117215,
          16.5233645
        ]
      },
      "id": "relation/1895100"
    },
    {
      "type": "Feature",
      "properties": {
        "@id": "relation/1895121",
        "landuse": "forest",
        "type": "multipolygon",
        "@geometry": "center"
      },
      "geometry": {
        "type": "Point",
        "coordinates": [
          102.3386098,
          16.5829037
        ]
      },
      "id": "relation/1895121"
    },
    {
      "type": "Feature",
      "properties": {
        "@id": "relation/1906222",
        "addr:district": "หนองเรือ",
        "addr:district:en": "Nong Ruea",
        "addr:hamlet": "หมู่ที่ 5",
        "addr:province": "ขอนแก่น",
        "addr:province:en": "Khon Kaen",
        "addr:subdistrict": "โนนสะอาด",
        "addr:subdistrict:en": "Non Sa-at",
        "landuse": "forest",
        "name": "วัดป่านันทาวาส",
        "name:en": "Wat Pa Nan Tha Wat",
        "source": "Bing; sign",
        "type": "multipolygon",
        "@geometry": "center"
      },
      "geometry": {
        "type": "Point",
        "coordinates": [
          102.3204,
          16.5197393
        ]
      },
      "id": "relation/1906222"
    },
    {
      "type": "Feature",
      "properties": {
        "@id": "relation/1906223",
        "addr:district": "หนองเรือ",
        "addr:district:en": "Nong Ruea",
        "addr:hamlet": "หมู่ที่ 5",
        "addr:province": "ขอนแก่น",
        "addr:province:en": "Khon Kaen",
        "addr:subdistrict": "โนนสะอาด",
        "addr:subdistrict:en": "Non Sa-at",
        "landuse": "forest",
        "name": "วัดสระทอง",
        "name:en": "Wat Sa Thong",
        "source": "Bing; sign",
        "type": "multipolygon",
        "@geometry": "center"
      },
      "geometry": {
        "type": "Point",
        "coordinates": [
          102.3216279,
          16.5130563
        ]
      },
      "id": "relation/1906223"
    },
    {
      "type": "Feature",
      "properties": {
        "@id": "relation/1911340",
        "landuse": "forest",
        "source": "Bing",
        "type": "multipolygon",
        "@geometry": "center"
      },
      "geometry": {
        "type": "Point",
        "coordinates": [
          102.5154496,
          16.570858
        ]
      },
      "id": "relation/1911340"
    },
    {
      "type": "Feature",
      "properties": {
        "@id": "relation/1911341",
        "addr:district": "หนองเรือ",
        "addr:district:en": "Nong Ruea",
        "addr:province": "ขอนแก่น",
        "addr:province:en": "Khon Kaen",
        "addr:subdistrict": "บ้านกง",
        "addr:subdistrict:en": "Ban Kong",
        "landuse": "forest",
        "name": "วัดชัยมงคล",
        "name:en": "Wat Chai Mongkhon",
        "source": "Bing; sign",
        "type": "multipolygon",
        "@geometry": "center"
      },
      "geometry": {
        "type": "Point",
        "coordinates": [
          102.5189031,
          16.4959505
        ]
      },
      "id": "relation/1911341"
    },
    {
      "type": "Feature",
      "properties": {
        "@id": "relation/1911342",
        "addr:district": "ภูเวียง",
        "addr:district:en": "Phu Wiang",
        "addr:province": "ขอนแก่น",
        "addr:province:en": "Khon Kaen",
        "addr:subdistrict": "กุดขอนแก่น",
        "addr:subdistrict:en": "Kut Khon Kaen",
        "landuse": "forest",
        "name": "วัดป่ากาญจนา",
        "name:en": "Wat Pa Kanchana",
        "source": "Bing; sign",
        "type": "multipolygon",
        "@geometry": "center"
      },
      "geometry": {
        "type": "Point",
        "coordinates": [
          102.5123627,
          16.5706503
        ]
      },
      "id": "relation/1911342"
    },
    {
      "type": "Feature",
      "properties": {
        "@id": "relation/1911343",
        "addr:district": "หนองเรือ",
        "addr:district:en": "Nong Ruea",
        "addr:province": "ขอนแก่น",
        "addr:province:en": "Khon Kaen",
        "addr:subdistrict": "โนนทอง",
        "addr:subdistrict:en": "Non Thong",
        "landuse": "forest",
        "name": "วัดป่าสุขิตาราม",
        "name:en": "Wat Pa Su Khi Ta Ram",
        "source": "Bing; sign",
        "type": "multipolygon",
        "@geometry": "center"
      },
      "geometry": {
        "type": "Point",
        "coordinates": [
          102.453521,
          16.5956047
        ]
      },
      "id": "relation/1911343"
    },
    {
      "type": "Feature",
      "properties": {
        "@id": "relation/1911345",
        "addr:district": "ภูเวียง",
        "addr:district:en": "Phu Wiang",
        "addr:hamlet": "หมู่ที่ 1",
        "addr:province": "ขอนแก่น",
        "addr:province:en": "Khon Kaen",
        "addr:subdistrict": "กุดขอนแก่น",
        "addr:subdistrict:en": "Kut Khon Kaen",
        "landuse": "forest",
        "name": "วัดป่าเทพประชาสรรค์",
        "name:en": "Wat Pa Thep Pracha San",
        "source": "Bing; sign",
        "type": "multipolygon",
        "@geometry": "center"
      },
      "geometry": {
        "type": "Point",
        "coordinates": [
          102.4826168,
          16.5692572
        ]
      },
      "id": "relation/1911345"
    },
    {
      "type": "Feature",
      "properties": {
        "@id": "relation/1923312",
        "addr:district": "อุบลรัตน์",
        "addr:district:en": "Ubonrat",
        "addr:province": "ขอนแก่น",
        "addr:province:en": "Khon Kaen",
        "addr:subdistrict": "เขื่อนอุบลรัตน์",
        "addr:subdistrict:en": "Khuean Ubonrat",
        "landuse": "forest",
        "name": "สถานีควบคมไฟป่าจังหวัดขอนแก่น",
        "name:en": "Khon Kaen Province Forest Fire Control Station",
        "source": "Bing; sign",
        "type": "multipolygon",
        "@geometry": "center"
      },
      "geometry": {
        "type": "Point",
        "coordinates": [
          102.614212,
          16.6747199
        ]
      },
      "id": "relation/1923312"
    },
    {
      "type": "Feature",
      "properties": {
        "@id": "relation/1946863",
        "landuse": "forest",
        "source": "Bing",
        "type": "multipolygon",
        "@geometry": "center"
      },
      "geometry": {
        "type": "Point",
        "coordinates": [
          102.8016287,
          16.6699943
        ]
      },
      "id": "relation/1946863"
    },
    {
      "type": "Feature",
      "properties": {
        "@id": "relation/1963021",
        "landuse": "forest",
        "source": "Bing",
        "type": "multipolygon",
        "@geometry": "center"
      },
      "geometry": {
        "type": "Point",
        "coordinates": [
          102.869577,
          16.7738395
        ]
      },
      "id": "relation/1963021"
    },
    {
      "type": "Feature",
      "properties": {
        "@id": "relation/1963057",
        "landuse": "forest",
        "source": "Bing",
        "type": "multipolygon",
        "@geometry": "center"
      },
      "geometry": {
        "type": "Point",
        "coordinates": [
          102.8747206,
          16.7802909
        ]
      },
      "id": "relation/1963057"
    },
    {
      "type": "Feature",
      "properties": {
        "@id": "relation/1981472",
        "landuse": "forest",
        "source": "Bing",
        "type": "multipolygon",
        "@geometry": "center"
      },
      "geometry": {
        "type": "Point",
        "coordinates": [
          102.757063,
          16.8726546
        ]
      },
      "id": "relation/1981472"
    },
    {
      "type": "Feature",
      "properties": {
        "@id": "relation/1981473",
        "landuse": "forest",
        "source": "Bing",
        "type": "multipolygon",
        "@geometry": "center"
      },
      "geometry": {
        "type": "Point",
        "coordinates": [
          102.8615338,
          16.8643846
        ]
      },
      "id": "relation/1981473"
    },
    {
      "type": "Feature",
      "properties": {
        "@id": "relation/1981474",
        "landuse": "forest",
        "source": "Bing",
        "type": "multipolygon",
        "@geometry": "center"
      },
      "geometry": {
        "type": "Point",
        "coordinates": [
          102.795959,
          16.9527923
        ]
      },
      "id": "relation/1981474"
    },
    {
      "type": "Feature",
      "properties": {
        "@id": "relation/1981484",
        "addr:district": "เขาสวนกวาง",
        "addr:district:en": "Khao Suan Kwang",
        "addr:hamlet": "หมู่ที่ 1",
        "addr:province": "ขอนแก่น",
        "addr:province:en": "Khon Kaen",
        "addr:subdistrict": "โนนสมบูรณ์",
        "addr:subdistrict:en": "Non Sombun",
        "landuse": "forest",
        "name": "วัดป่าบ้านป่าเปือย",
        "name:en": "Wat Pa Ban Pa Pueai",
        "source": "Bing; sign",
        "type": "multipolygon",
        "@geometry": "center"
      },
      "geometry": {
        "type": "Point",
        "coordinates": [
          102.7860648,
          16.9704891
        ]
      },
      "id": "relation/1981484"
    },
    {
      "type": "Feature",
      "properties": {
        "@id": "relation/1981487",
        "addr:district": "โนนสะอาด",
        "addr:district:en": "Non Sa-at",
        "addr:hamlet": "หมู่ที่ 8",
        "addr:province": "อุดรธานี",
        "addr:province:en": "Udon Thani",
        "addr:subdistrict": "โคกกลาง",
        "addr:subdistrict:en": "Khok Klang",
        "landuse": "forest",
        "name": "วัดป่าแสงแก้ว",
        "name:en": "Wat Pa Saeng Kaeo",
        "source": "Bing; sign",
        "type": "multipolygon",
        "@geometry": "center"
      },
      "geometry": {
        "type": "Point",
        "coordinates": [
          102.8396844,
          16.8773328
        ]
      },
      "id": "relation/1981487"
    },
    {
      "type": "Feature",
      "properties": {
        "@id": "relation/1985825",
        "landuse": "forest",
        "source": "Bing",
        "type": "multipolygon",
        "@geometry": "center"
      },
      "geometry": {
        "type": "Point",
        "coordinates": [
          102.9393674,
          16.7779484
        ]
      },
      "id": "relation/1985825"
    },
    {
      "type": "Feature",
      "properties": {
        "@id": "relation/1985826",
        "landuse": "forest",
        "source": "Bing",
        "type": "multipolygon",
        "@geometry": "center"
      },
      "geometry": {
        "type": "Point",
        "coordinates": [
          102.9598331,
          16.7501924
        ]
      },
      "id": "relation/1985826"
    },
    {
      "type": "Feature",
      "properties": {
        "@id": "relation/1985831",
        "addr:district": "น้ำพอง",
        "addr:district:en": "Nam Phong",
        "addr:hamlet": "หมู่ที่ 4",
        "addr:province": "ขอนแก่น",
        "addr:province:en": "Khon Kaen",
        "addr:subdistrict": "พังทุย",
        "addr:subdistrict:en": "Phang Thui",
        "landuse": "forest",
        "name": "วัดม้านโสกม่วง",
        "name:en": "Wat Man Sok Muang",
        "source": "Bing; sign",
        "type": "multipolygon",
        "@geometry": "center"
      },
      "geometry": {
        "type": "Point",
        "coordinates": [
          102.9383833,
          16.7577826
        ]
      },
      "id": "relation/1985831"
    },
    {
      "type": "Feature",
      "properties": {
        "@id": "relation/1988262",
        "landuse": "forest",
        "source": "Bing",
        "type": "multipolygon",
        "@geometry": "center"
      },
      "geometry": {
        "type": "Point",
        "coordinates": [
          102.9686344,
          16.7000593
        ]
      },
      "id": "relation/1988262"
    },
    {
      "type": "Feature",
      "properties": {
        "@id": "relation/1988264",
        "landuse": "forest",
        "source": "Bing",
        "type": "multipolygon",
        "@geometry": "center"
      },
      "geometry": {
        "type": "Point",
        "coordinates": [
          102.9190552,
          16.6855157
        ]
      },
      "id": "relation/1988264"
    },
    {
      "type": "Feature",
      "properties": {
        "@id": "relation/1988343",
        "addr:district": "น้ำพอง",
        "addr:district:en": "Nam Phong",
        "addr:hamlet": "หมู่ที่ 12",
        "addr:province": "ขอนแก่น",
        "addr:province:en": "Khon Kaen",
        "addr:subdistrict": "ทรายมูล",
        "addr:subdistrict:en": "Sai Mun",
        "landuse": "forest",
        "name": "วัดสว่างแสงทอง",
        "name:en": "Wat Sawang Saeng Thong",
        "source": "Bing; sign",
        "type": "multipolygon",
        "@geometry": "center"
      },
      "geometry": {
        "type": "Point",
        "coordinates": [
          102.9158652,
          16.6916907
        ]
      },
      "id": "relation/1988343"
    },
    {
      "type": "Feature",
      "properties": {
        "@id": "relation/1990764",
        "landuse": "forest",
        "source": "Bing",
        "type": "multipolygon",
        "@geometry": "center"
      },
      "geometry": {
        "type": "Point",
        "coordinates": [
          102.8483739,
          16.6942938
        ]
      },
      "id": "relation/1990764"
    },
    {
      "type": "Feature",
      "properties": {
        "@id": "relation/1990818",
        "addr:district": "น้ำพอง",
        "addr:district:en": "Nam Phong",
        "addr:hamlet": "หมู่ที่ 5",
        "addr:province": "ขอนแก่น",
        "addr:province:en": "Khon Kaen",
        "addr:subdistrict": "วังชัย",
        "addr:subdistrict:en": "Wang Chai",
        "landuse": "forest",
        "name": "วัดสุคนธชัย",
        "name:en": "Wat Su Khontha Chai",
        "source": "Bing; sign",
        "type": "multipolygon",
        "@geometry": "center"
      },
      "geometry": {
        "type": "Point",
        "coordinates": [
          102.8282677,
          16.6798303
        ]
      },
      "id": "relation/1990818"
    },
    {
      "type": "Feature",
      "properties": {
        "@id": "relation/1995439",
        "landuse": "forest",
        "source": "Bing",
        "type": "multipolygon",
        "@geometry": "center"
      },
      "geometry": {
        "type": "Point",
        "coordinates": [
          103.062488,
          16.7396901
        ]
      },
      "id": "relation/1995439"
    },
    {
      "type": "Feature",
      "properties": {
        "@id": "relation/1995440",
        "landuse": "forest",
        "source": "Bing",
        "type": "multipolygon",
        "@geometry": "center"
      },
      "geometry": {
        "type": "Point",
        "coordinates": [
          103.0792239,
          16.7558813
        ]
      },
      "id": "relation/1995440"
    },
    {
      "type": "Feature",
      "properties": {
        "@id": "relation/1995442",
        "addr:district": "กระนวน",
        "addr:district:en": "Kranuan",
        "addr:province": "ขอนแก่น",
        "addr:province:en": "Khon Kaen",
        "landuse": "forest",
        "name": "วัดป่าศรีสุทธาราม",
        "name:en": "Wat Pa Si Sut Tha Ram",
        "source": "Bing; sign",
        "type": "multipolygon",
        "@geometry": "center"
      },
      "geometry": {
        "type": "Point",
        "coordinates": [
          103.0726637,
          16.7517849
        ]
      },
      "id": "relation/1995442"
    },
    {
      "type": "Feature",
      "properties": {
        "@id": "relation/1995443",
        "addr:district": "กระนวน",
        "addr:district:en": "Kranuan",
        "addr:hamlet": "หมู่ที่ 18",
        "addr:province": "ขอนแก่น",
        "addr:province:en": "Khon Kaen",
        "addr:subdistrict": "หนองโน",
        "addr:subdistrict:en": "Nong No",
        "landuse": "forest",
        "name": "วัดป่าโนนราศรี",
        "name:en": "Wat Pa Non Ra Si",
        "source": "Bing; sign",
        "type": "multipolygon",
        "@geometry": "center"
      },
      "geometry": {
        "type": "Point",
        "coordinates": [
          103.0660116,
          16.7235564
        ]
      },
      "id": "relation/1995443"
    },
    {
      "type": "Feature",
      "properties": {
        "@id": "relation/1997039",
        "landuse": "forest",
        "source": "Bing",
        "type": "multipolygon",
        "@geometry": "center"
      },
      "geometry": {
        "type": "Point",
        "coordinates": [
          103.022019,
          16.7750352
        ]
      },
      "id": "relation/1997039"
    },
    {
      "type": "Feature",
      "properties": {
        "@id": "relation/1997040",
        "landuse": "forest",
        "source": "Bing",
        "type": "multipolygon",
        "@geometry": "center"
      },
      "geometry": {
        "type": "Point",
        "coordinates": [
          103.0817958,
          16.8277009
        ]
      },
      "id": "relation/1997040"
    },
    {
      "type": "Feature",
      "properties": {
        "@id": "relation/1997041",
        "landuse": "forest",
        "source": "Bing",
        "type": "multipolygon",
        "@geometry": "center"
      },
      "geometry": {
        "type": "Point",
        "coordinates": [
          103.0284147,
          16.7665121
        ]
      },
      "id": "relation/1997041"
    },
    {
      "type": "Feature",
      "properties": {
        "@id": "relation/1997042",
        "landuse": "forest",
        "source": "Bing",
        "type": "multipolygon",
        "@geometry": "center"
      },
      "geometry": {
        "type": "Point",
        "coordinates": [
          103.0426439,
          16.7817485
        ]
      },
      "id": "relation/1997042"
    },
    {
      "type": "Feature",
      "properties": {
        "@id": "relation/1997043",
        "landuse": "forest",
        "source": "Bing",
        "type": "multipolygon",
        "@geometry": "center"
      },
      "geometry": {
        "type": "Point",
        "coordinates": [
          103.0570871,
          16.8053654
        ]
      },
      "id": "relation/1997043"
    },
    {
      "type": "Feature",
      "properties": {
        "@id": "relation/1997048",
        "addr:district": "กระนวน",
        "addr:district:en": "Kranuan",
        "addr:province": "ขอนแก่น",
        "addr:province:en": "Khon Kaen",
        "landuse": "forest",
        "name": "วัดป่าศรีเจริญธรรม",
        "name:en": "Wat Pa Si Charoen Tham",
        "source": "Bing; sign",
        "type": "multipolygon",
        "@geometry": "center"
      },
      "geometry": {
        "type": "Point",
        "coordinates": [
          103.0974928,
          16.8107377
        ]
      },
      "id": "relation/1997048"
    },
    {
      "type": "Feature",
      "properties": {
        "@id": "relation/1997049",
        "addr:district": "กระนวน",
        "addr:district:en": "Kranuan",
        "addr:hamlet": "หมู่ที่ 7",
        "addr:province": "ขอนแก่น",
        "addr:province:en": "Khon Kaen",
        "addr:subdistrict": "บ้านฝาง",
        "addr:subdistrict:en": "Ban Fang",
        "landuse": "forest",
        "name": "วัดฝางศรีงามราษฎร์",
        "name:en": "Wat Fang Si Ngam Rat",
        "source": "Bing; sign",
        "type": "multipolygon",
        "@geometry": "center"
      },
      "geometry": {
        "type": "Point",
        "coordinates": [
          103.0079717,
          16.7677405
        ]
      },
      "id": "relation/1997049"
    },
    {
      "type": "Feature",
      "properties": {
        "@id": "relation/1998977",
        "landuse": "forest",
        "source": "Bing",
        "type": "multipolygon",
        "@geometry": "center"
      },
      "geometry": {
        "type": "Point",
        "coordinates": [
          103.0377392,
          16.8082445
        ]
      },
      "id": "relation/1998977"
    },
    {
      "type": "Feature",
      "properties": {
        "@id": "relation/1998984",
        "addr:district": "กระนวน",
        "addr:district:en": "Kranuan",
        "addr:hamlet": "หมู่ที่ 2",
        "addr:province": "ขอนแก่น",
        "addr:province:en": "Khon Kaen",
        "addr:subdistrict": "ห้วยยาง",
        "addr:subdistrict:en": "Huai Yang",
        "landuse": "forest",
        "name": "วัดป่าประชาบำรุง",
        "name:en": "Wat Pa Pracha Bamrung",
        "source": "Bing; sign",
        "type": "multipolygon",
        "@geometry": "center"
      },
      "geometry": {
        "type": "Point",
        "coordinates": [
          103.0919216,
          16.8562214
        ]
      },
      "id": "relation/1998984"
    },
    {
      "type": "Feature",
      "properties": {
        "@id": "relation/2000226",
        "landuse": "forest",
        "source": "Bing",
        "type": "multipolygon",
        "@geometry": "center"
      },
      "geometry": {
        "type": "Point",
        "coordinates": [
          102.9700639,
          16.7825416
        ]
      },
      "id": "relation/2000226"
    },
    {
      "type": "Feature",
      "properties": {
        "@id": "relation/2000227",
        "landuse": "forest",
        "source": "Bing",
        "type": "multipolygon",
        "@geometry": "center"
      },
      "geometry": {
        "type": "Point",
        "coordinates": [
          102.9347633,
          16.7589719
        ]
      },
      "id": "relation/2000227"
    },
    {
      "type": "Feature",
      "properties": {
        "@id": "relation/2000228",
        "landuse": "forest",
        "source": "Bing",
        "type": "multipolygon",
        "@geometry": "center"
      },
      "geometry": {
        "type": "Point",
        "coordinates": [
          102.9860578,
          16.7743572
        ]
      },
      "id": "relation/2000228"
    },
    {
      "type": "Feature",
      "properties": {
        "@id": "relation/2065615",
        "addr:district": "ประโคนชัย",
        "addr:district:en": "Prakhon Chai",
        "addr:province": "บุรีรัมย์",
        "addr:province:en": "Buri Ram",
        "addr:subdistrict": "บ้านไทร",
        "addr:subdistrict:en": "Ban Sai",
        "landuse": "forest",
        "name": "วัดป่าไพบูลย์",
        "name:en": "Wat Pa Phaibun",
        "source": "Bing; sign",
        "type": "multipolygon",
        "@geometry": "center"
      },
      "geometry": {
        "type": "Point",
        "coordinates": [
          103.0575512,
          14.7342591
        ]
      },
      "id": "relation/2065615"
    },
    {
      "type": "Feature",
      "properties": {
        "@id": "relation/2070454",
        "landuse": "forest",
        "source": "Bing",
        "type": "multipolygon",
        "@geometry": "center"
      },
      "geometry": {
        "type": "Point",
        "coordinates": [
          103.165263,
          15.0866648
        ]
      },
      "id": "relation/2070454"
    },
    {
      "type": "Feature",
      "properties": {
        "@id": "relation/2073525",
        "landuse": "forest",
        "source": "Bing",
        "type": "multipolygon",
        "@geometry": "center"
      },
      "geometry": {
        "type": "Point",
        "coordinates": [
          103.1525189,
          15.6103641
        ]
      },
      "id": "relation/2073525"
    },
    {
      "type": "Feature",
      "properties": {
        "@id": "relation/2073526",
        "landuse": "forest",
        "source": "Bing",
        "type": "multipolygon",
        "@geometry": "center"
      },
      "geometry": {
        "type": "Point",
        "coordinates": [
          103.1853066,
          15.5380761
        ]
      },
      "id": "relation/2073526"
    },
    {
      "type": "Feature",
      "properties": {
        "@id": "relation/2074852",
        "landuse": "forest",
        "source": "Bing",
        "type": "multipolygon",
        "@geometry": "center"
      },
      "geometry": {
        "type": "Point",
        "coordinates": [
          103.0776211,
          15.9614688
        ]
      },
      "id": "relation/2074852"
    },
    {
      "type": "Feature",
      "properties": {
        "@id": "relation/2078927",
        "addr:district": "โนนสัง",
        "addr:district:en": "Non Sang",
        "addr:province": "หนองบัวลำภู",
        "addr:province:en": "Nong Bua Lam Phu",
        "addr:subdistrict": "โนนสัง",
        "addr:subdistrict:en": "Non Sang",
        "landuse": "forest",
        "name": "วัดทุ่งสว่าง",
        "name:en": "Wat Thung Sawang",
        "source": "Bing; sign",
        "type": "multipolygon",
        "@geometry": "center"
      },
      "geometry": {
        "type": "Point",
        "coordinates": [
          102.5662419,
          16.8741329
        ]
      },
      "id": "relation/2078927"
    },
    {
      "type": "Feature",
      "properties": {
        "@id": "relation/2078933",
        "addr:district": "โนนสัง",
        "addr:district:en": "Non Sang",
        "addr:province": "หนองบัวลำภู",
        "addr:province:en": "Nong Bua Lam Phu",
        "addr:subdistrict": "บ้านค้อ",
        "addr:subdistrict:en": "Ban Kho",
        "landuse": "forest",
        "name": "วัดป่าชบาวัลย์",
        "name:en": "Wat Pa Chaba Wan",
        "source": "Bing; sign",
        "type": "multipolygon",
        "@geometry": "center"
      },
      "geometry": {
        "type": "Point",
        "coordinates": [
          102.5945292,
          16.8672482
        ]
      },
      "id": "relation/2078933"
    },
    {
      "type": "Feature",
      "properties": {
        "@id": "relation/2078937",
        "addr:district": "โนนสัง",
        "addr:district:en": "Non Sang",
        "addr:province": "หนองบัวลำภู",
        "addr:province:en": "Nong Bua Lam Phu",
        "addr:subdistrict": "โนนสัง",
        "addr:subdistrict:en": "Non Sang",
        "landuse": "forest",
        "name": "วัดศรีโนนสัง",
        "name:en": "Wat Si Non Sang",
        "source": "Bing; sign",
        "type": "multipolygon",
        "@geometry": "center"
      },
      "geometry": {
        "type": "Point",
        "coordinates": [
          102.5699369,
          16.8839562
        ]
      },
      "id": "relation/2078937"
    },
    {
      "type": "Feature",
      "properties": {
        "@id": "relation/2082651",
        "landuse": "forest",
        "source": "Bing",
        "type": "multipolygon",
        "@geometry": "center"
      },
      "geometry": {
        "type": "Point",
        "coordinates": [
          103.1068959,
          16.7136933
        ]
      },
      "id": "relation/2082651"
    },
    {
      "type": "Feature",
      "properties": {
        "@id": "relation/2082652",
        "addr:district": "กระนวน",
        "addr:district:en": "Kranuan",
        "addr:province": "ขอนแก่น",
        "addr:province:en": "Khon Kaen",
        "addr:subdistrict": "หนองโน",
        "addr:subdistrict:en": "Nong No",
        "landuse": "forest",
        "name": "วัดป่าสามัคคีธรรม",
        "name:en": "Wat Pa Samakkhi Tham",
        "source": "Bing; sign",
        "type": "multipolygon",
        "@geometry": "center"
      },
      "geometry": {
        "type": "Point",
        "coordinates": [
          103.1121945,
          16.7265994
        ]
      },
      "id": "relation/2082652"
    },
    {
      "type": "Feature",
      "properties": {
        "@id": "relation/2084130",
        "landuse": "forest",
        "source": "Bing",
        "type": "multipolygon",
        "@geometry": "center"
      },
      "geometry": {
        "type": "Point",
        "coordinates": [
          103.1530718,
          16.799926
        ]
      },
      "id": "relation/2084130"
    },
    {
      "type": "Feature",
      "properties": {
        "@id": "relation/2084132",
        "landuse": "forest",
        "source": "Bing",
        "type": "multipolygon",
        "@geometry": "center"
      },
      "geometry": {
        "type": "Point",
        "coordinates": [
          103.1570165,
          16.7963775
        ]
      },
      "id": "relation/2084132"
    },
    {
      "type": "Feature",
      "properties": {
        "@id": "relation/2084133",
        "landuse": "forest",
        "source": "Bing",
        "type": "multipolygon",
        "@geometry": "center"
      },
      "geometry": {
        "type": "Point",
        "coordinates": [
          103.0902389,
          16.7790398
        ]
      },
      "id": "relation/2084133"
    },
    {
      "type": "Feature",
      "properties": {
        "@id": "relation/2084134",
        "landuse": "forest",
        "source": "Bing",
        "type": "multipolygon",
        "@geometry": "center"
      },
      "geometry": {
        "type": "Point",
        "coordinates": [
          103.1484049,
          16.8049072
        ]
      },
      "id": "relation/2084134"
    },
    {
      "type": "Feature",
      "properties": {
        "@id": "relation/2084139",
        "addr:district": "กระนวน",
        "addr:district:en": "Kranuan",
        "addr:province": "ขอนแก่น",
        "addr:province:en": "Khon Kaen",
        "addr:subdistrict": "ดูนสาด",
        "addr:subdistrict:en": "Dun Sat",
        "landuse": "forest",
        "name": "วัดป่าภูน้ำป๊อก",
        "name:en": "Wat Pa Phu Nam Pok",
        "source": "Bing; sign",
        "type": "multipolygon",
        "@geometry": "center"
      },
      "geometry": {
        "type": "Point",
        "coordinates": [
          103.1474955,
          16.8085408
        ]
      },
      "id": "relation/2084139"
    },
    {
      "type": "Feature",
      "properties": {
        "@id": "relation/2087447",
        "landuse": "forest",
        "source": "Bing",
        "type": "multipolygon",
        "@geometry": "center"
      },
      "geometry": {
        "type": "Point",
        "coordinates": [
          103.1340255,
          16.7034166
        ]
      },
      "id": "relation/2087447"
    },
    {
      "type": "Feature",
      "properties": {
        "@id": "relation/2087448",
        "landuse": "forest",
        "source": "Bing",
        "type": "multipolygon",
        "@geometry": "center"
      },
      "geometry": {
        "type": "Point",
        "coordinates": [
          103.0503791,
          16.6736606
        ]
      },
      "id": "relation/2087448"
    },
    {
      "type": "Feature",
      "properties": {
        "@id": "relation/2092994",
        "landuse": "forest",
        "source": "Bing",
        "type": "multipolygon",
        "@geometry": "center"
      },
      "geometry": {
        "type": "Point",
        "coordinates": [
          102.6464322,
          15.7923579
        ]
      },
      "id": "relation/2092994"
    },
    {
      "type": "Feature",
      "properties": {
        "@id": "relation/2092995",
        "landuse": "forest",
        "source": "Bing",
        "type": "multipolygon",
        "@geometry": "center"
      },
      "geometry": {
        "type": "Point",
        "coordinates": [
          102.6467292,
          15.7647647
        ]
      },
      "id": "relation/2092995"
    },
    {
      "type": "Feature",
      "properties": {
        "@id": "relation/2092998",
        "addr:district": "พน",
        "addr:district:en": "Phon",
        "addr:province": "ขอนแก่น",
        "addr:province:en": "Khon Kaen",
        "addr:subdistrict": "เมืองพน",
        "addr:subdistrict:en": "Mueang Phon",
        "landuse": "forest",
        "name": "วัดป่าพุทธรังษี",
        "name:en": "Wat Pa Phut Rang Si",
        "source": "Bing; sign",
        "type": "multipolygon",
        "@geometry": "center"
      },
      "geometry": {
        "type": "Point",
        "coordinates": [
          102.6514513,
          15.7856728
        ]
      },
      "id": "relation/2092998"
    },
    {
      "type": "Feature",
      "properties": {
        "@id": "relation/2093003",
        "addr:district": "พน",
        "addr:district:en": "Phon",
        "addr:hamlet": "หมู่ที่ 6",
        "addr:province": "ขอนแก่น",
        "addr:province:en": "Khon Kaen",
        "addr:subdistrict": "หนองแวงโสกพระ",
        "addr:subdistrict:en": "Nong Waeng Sok Phra",
        "landuse": "forest",
        "name": "สำนักสงฆ์สีมณีวนาราม",
        "name:en": "Residence of Monk Si Manio Na Ram",
        "source": "Bing; sign",
        "type": "multipolygon",
        "@geometry": "center"
      },
      "geometry": {
        "type": "Point",
        "coordinates": [
          102.6489601,
          15.7635269
        ]
      },
      "id": "relation/2093003"
    },
    {
      "type": "Feature",
      "properties": {
        "@id": "relation/2093351",
        "landuse": "forest",
        "source": "Bing",
        "type": "multipolygon",
        "@geometry": "center"
      },
      "geometry": {
        "type": "Point",
        "coordinates": [
          102.7276093,
          15.708679
        ]
      },
      "id": "relation/2093351"
    },
    {
      "type": "Feature",
      "properties": {
        "@id": "relation/2093387",
        "landuse": "forest",
        "source": "Bing",
        "type": "multipolygon",
        "@geometry": "center"
      },
      "geometry": {
        "type": "Point",
        "coordinates": [
          102.7145881,
          15.723289
        ]
      },
      "id": "relation/2093387"
    },
    {
      "type": "Feature",
      "properties": {
        "@id": "relation/2094582",
        "landuse": "forest",
        "source": "Bing",
        "type": "multipolygon",
        "@geometry": "center"
      },
      "geometry": {
        "type": "Point",
        "coordinates": [
          102.8047193,
          15.6383779
        ]
      },
      "id": "relation/2094582"
    },
    {
      "type": "Feature",
      "properties": {
        "@id": "relation/2094583",
        "landuse": "forest",
        "source": "Bing",
        "type": "multipolygon",
        "@geometry": "center"
      },
      "geometry": {
        "type": "Point",
        "coordinates": [
          102.7589406,
          15.7156893
        ]
      },
      "id": "relation/2094583"
    },
    {
      "type": "Feature",
      "properties": {
        "@id": "relation/2094671",
        "landuse": "forest",
        "source": "Bing",
        "type": "multipolygon",
        "@geometry": "center"
      },
      "geometry": {
        "type": "Point",
        "coordinates": [
          102.7766321,
          15.7216315
        ]
      },
      "id": "relation/2094671"
    },
    {
      "type": "Feature",
      "properties": {
        "@id": "relation/2096111",
        "landuse": "forest",
        "source": "Bing",
        "type": "multipolygon",
        "@geometry": "center"
      },
      "geometry": {
        "type": "Point",
        "coordinates": [
          102.8217355,
          15.6574579
        ]
      },
      "id": "relation/2096111"
    },
    {
      "type": "Feature",
      "properties": {
        "@id": "relation/2096112",
        "landuse": "forest",
        "source": "Bing",
        "type": "multipolygon",
        "@geometry": "center"
      },
      "geometry": {
        "type": "Point",
        "coordinates": [
          102.8154062,
          15.6914843
        ]
      },
      "id": "relation/2096112"
    },
    {
      "type": "Feature",
      "properties": {
        "@id": "relation/2097155",
        "addr:district": "หนองสองห้อง",
        "addr:district:en": "Nong Song Hong",
        "addr:hamlet": "หมู่ที่ 1",
        "addr:province": "ขอนแก่น",
        "addr:province:en": "Khon Kaen",
        "addr:subdistrict": "หนองเม็ก",
        "addr:subdistrict:en": "Nong Mek",
        "landuse": "forest",
        "name": "วัดป่าโพธิวิโรจน์",
        "name:en": "Wat Pa Phothi Wirot",
        "source": "Bing; sign",
        "type": "multipolygon",
        "@geometry": "center"
      },
      "geometry": {
        "type": "Point",
        "coordinates": [
          102.7333983,
          15.78485
        ]
      },
      "id": "relation/2097155"
    },
    {
      "type": "Feature",
      "properties": {
        "@id": "relation/2097216",
        "landuse": "forest",
        "source": "Bing",
        "type": "multipolygon",
        "@geometry": "center"
      },
      "geometry": {
        "type": "Point",
        "coordinates": [
          102.6560718,
          15.8079183
        ]
      },
      "id": "relation/2097216"
    },
    {
      "type": "Feature",
      "properties": {
        "@id": "relation/2097225",
        "landuse": "forest",
        "source": "Bing",
        "type": "multipolygon",
        "@geometry": "center"
      },
      "geometry": {
        "type": "Point",
        "coordinates": [
          102.7041684,
          15.8063566
        ]
      },
      "id": "relation/2097225"
    },
    {
      "type": "Feature",
      "properties": {
        "@id": "relation/2105049",
        "landuse": "forest",
        "type": "multipolygon",
        "@geometry": "center"
      },
      "geometry": {
        "type": "Point",
        "coordinates": [
          102.6776248,
          15.8445974
        ]
      },
      "id": "relation/2105049"
    },
    {
      "type": "Feature",
      "properties": {
        "@id": "relation/2105050",
        "landuse": "forest",
        "source": "Bing",
        "type": "multipolygon",
        "@geometry": "center"
      },
      "geometry": {
        "type": "Point",
        "coordinates": [
          102.6559287,
          15.8337062
        ]
      },
      "id": "relation/2105050"
    },
    {
      "type": "Feature",
      "properties": {
        "@id": "relation/2105051",
        "landuse": "forest",
        "source": "Bing",
        "type": "multipolygon",
        "@geometry": "center"
      },
      "geometry": {
        "type": "Point",
        "coordinates": [
          102.6834661,
          15.8500938
        ]
      },
      "id": "relation/2105051"
    },
    {
      "type": "Feature",
      "properties": {
        "@id": "relation/2105052",
        "landuse": "forest",
        "type": "multipolygon",
        "@geometry": "center"
      },
      "geometry": {
        "type": "Point",
        "coordinates": [
          102.6813416,
          15.8436084
        ]
      },
      "id": "relation/2105052"
    },
    {
      "type": "Feature",
      "properties": {
        "@id": "relation/2105053",
        "landuse": "forest",
        "source": "Bing",
        "type": "multipolygon",
        "@geometry": "center"
      },
      "geometry": {
        "type": "Point",
        "coordinates": [
          102.6762047,
          15.8468232
        ]
      },
      "id": "relation/2105053"
    },
    {
      "type": "Feature",
      "properties": {
        "@id": "relation/2105054",
        "addr:district": "พน",
        "addr:district:en": "Phon",
        "addr:province": "ขอนแก่น",
        "addr:province:en": "Khon Kaen",
        "addr:subdistrict": "โสกนกเต็น",
        "addr:subdistrict:en": "Sok Nok Ten",
        "landuse": "forest",
        "name": "วัดป่าเป้าจันทราวาส",
        "name:en": "Wat Pa Pao Chan Thra Wat",
        "source": "Bing; sign",
        "type": "multipolygon",
        "@geometry": "center"
      },
      "geometry": {
        "type": "Point",
        "coordinates": [
          102.6680496,
          15.8287175
        ]
      },
      "id": "relation/2105054"
    },
    {
      "type": "Feature",
      "properties": {
        "@id": "relation/2106254",
        "landuse": "forest",
        "source": "Bing",
        "type": "multipolygon",
        "@geometry": "center"
      },
      "geometry": {
        "type": "Point",
        "coordinates": [
          102.7293566,
          15.8293273
        ]
      },
      "id": "relation/2106254"
    },
    {
      "type": "Feature",
      "properties": {
        "@id": "relation/2110224",
        "landuse": "forest",
        "type": "multipolygon",
        "@geometry": "center"
      },
      "geometry": {
        "type": "Point",
        "coordinates": [
          102.8480592,
          15.9516903
        ]
      },
      "id": "relation/2110224"
    },
    {
      "type": "Feature",
      "properties": {
        "@id": "relation/2122727",
        "landuse": "forest",
        "source": "Bing",
        "type": "multipolygon",
        "@geometry": "center"
      },
      "geometry": {
        "type": "Point",
        "coordinates": [
          103.1020154,
          16.8864857
        ]
      },
      "id": "relation/2122727"
    },
    {
      "type": "Feature",
      "properties": {
        "@id": "relation/2148444",
        "landuse": "forest",
        "source": "Bing",
        "type": "multipolygon",
        "@geometry": "center"
      },
      "geometry": {
        "type": "Point",
        "coordinates": [
          102.7970714,
          14.9818516
        ]
      },
      "id": "relation/2148444"
    },
    {
      "type": "Feature",
      "properties": {
        "@id": "relation/2148490",
        "landuse": "forest",
        "source": "Bing",
        "type": "multipolygon",
        "@geometry": "center"
      },
      "geometry": {
        "type": "Point",
        "coordinates": [
          102.7995882,
          14.9918593
        ]
      },
      "id": "relation/2148490"
    },
    {
      "type": "Feature",
      "properties": {
        "@id": "relation/2148491",
        "landuse": "forest",
        "source": "Bing",
        "type": "multipolygon",
        "@geometry": "center"
      },
      "geometry": {
        "type": "Point",
        "coordinates": [
          102.7882532,
          14.9532978
        ]
      },
      "id": "relation/2148491"
    },
    {
      "type": "Feature",
      "properties": {
        "@id": "relation/2148492",
        "landuse": "forest",
        "source": "Bing",
        "type": "multipolygon",
        "@geometry": "center"
      },
      "geometry": {
        "type": "Point",
        "coordinates": [
          102.7951311,
          15.00063
        ]
      },
      "id": "relation/2148492"
    },
    {
      "type": "Feature",
      "properties": {
        "@id": "relation/2149898",
        "landuse": "forest",
        "source": "Bing",
        "type": "multipolygon",
        "@geometry": "center"
      },
      "geometry": {
        "type": "Point",
        "coordinates": [
          102.8055652,
          15.0373838
        ]
      },
      "id": "relation/2149898"
    },
    {
      "type": "Feature",
      "properties": {
        "@id": "relation/2154609",
        "landuse": "forest",
        "name": "วัดพระธาตุจอมศรี",
        "name:en": "Wat Phra That Chom Si",
        "type": "multipolygon",
        "@geometry": "center"
      },
      "geometry": {
        "type": "Point",
        "coordinates": [
          102.6101194,
          16.9313675
        ]
      },
      "id": "relation/2154609"
    },
    {
      "type": "Feature",
      "properties": {
        "@id": "relation/2154660",
        "landuse": "forest",
        "source": "Bing",
        "type": "multipolygon",
        "@geometry": "center"
      },
      "geometry": {
        "type": "Point",
        "coordinates": [
          102.575878,
          16.950317
        ]
      },
      "id": "relation/2154660"
    },
    {
      "type": "Feature",
      "properties": {
        "@id": "relation/2162129",
        "landuse": "forest",
        "source": "Bing",
        "type": "multipolygon",
        "@geometry": "center"
      },
      "geometry": {
        "type": "Point",
        "coordinates": [
          102.5424937,
          16.9134218
        ]
      },
      "id": "relation/2162129"
    },
    {
      "type": "Feature",
      "properties": {
        "@id": "relation/2162130",
        "landuse": "forest",
        "source": "Bing",
        "type": "multipolygon",
        "@geometry": "center"
      },
      "geometry": {
        "type": "Point",
        "coordinates": [
          102.5325881,
          16.8666317
        ]
      },
      "id": "relation/2162130"
    },
    {
      "type": "Feature",
      "properties": {
        "@id": "relation/2162131",
        "landuse": "forest",
        "source": "Bing",
        "type": "multipolygon",
        "@geometry": "center"
      },
      "geometry": {
        "type": "Point",
        "coordinates": [
          102.5363914,
          16.9109016
        ]
      },
      "id": "relation/2162131"
    },
    {
      "type": "Feature",
      "properties": {
        "@id": "relation/2162134",
        "addr:district": "โนนสัง",
        "addr:district:en": "Non Sang",
        "addr:hamlet": "หมู่ที่ 9",
        "addr:province": "หนองบัวลำภู",
        "addr:province:en": "Nong Bua Lam Phu",
        "addr:subdistrict": "นิคมพัฒนา",
        "addr:subdistrict:en": "Nikhom Phatthana",
        "landuse": "forest",
        "name": "วัดป่าสามัคคีธรรม",
        "name:en": "Wat Pa Samakkhi Tham",
        "source": "Bing; sign",
        "type": "multipolygon",
        "@geometry": "center"
      },
      "geometry": {
        "type": "Point",
        "coordinates": [
          102.5359319,
          16.8959556
        ]
      },
      "id": "relation/2162134"
    },
    {
      "type": "Feature",
      "properties": {
        "@id": "relation/2162135",
        "addr:district": "โนนสัง",
        "addr:district:en": "Non Sang",
        "addr:hamlet": "หมู่ที่ 1",
        "addr:province": "หนองบัวลำภู",
        "addr:province:en": "Nong Bua Lam Phu",
        "addr:subdistrict": "นิคมพัฒนา",
        "addr:subdistrict:en": "Nikhom Phatthana",
        "landuse": "forest",
        "name": "วัดป่าเทพนิมิตร์",
        "name:en": "Wat Pa Thep Ni Mit",
        "source": "Bing; sign",
        "type": "multipolygon",
        "@geometry": "center"
      },
      "geometry": {
        "type": "Point",
        "coordinates": [
          102.5448415,
          16.917854
        ]
      },
      "id": "relation/2162135"
    },
    {
      "type": "Feature",
      "properties": {
        "@id": "relation/2162156",
        "landuse": "forest",
        "source": "Bing",
        "type": "multipolygon",
        "@geometry": "center"
      },
      "geometry": {
        "type": "Point",
        "coordinates": [
          102.5337391,
          16.9252646
        ]
      },
      "id": "relation/2162156"
    },
    {
      "type": "Feature",
      "properties": {
        "@id": "relation/2162539",
        "landuse": "forest",
        "source": "Bing",
        "type": "multipolygon",
        "@geometry": "center"
      },
      "geometry": {
        "type": "Point",
        "coordinates": [
          102.4745138,
          16.8204954
        ]
      },
      "id": "relation/2162539"
    },
    {
      "type": "Feature",
      "properties": {
        "@id": "relation/2162548",
        "addr:district": "โนนสัง",
        "addr:district:en": "Non Sang",
        "addr:hamlet": "หมู่ที่ 3",
        "addr:province": "หนองบัวลำภู",
        "addr:province:en": "Nong Bua Lam Phu",
        "addr:subdistrict": "โนนเมือง",
        "addr:subdistrict:en": "Non Mueang",
        "landuse": "forest",
        "name": "วัดสว่างสทธาราม",
        "name:en": "Wat Sawang Sot Tha Ram",
        "source": "Bing; sign",
        "type": "multipolygon",
        "@geometry": "center"
      },
      "geometry": {
        "type": "Point",
        "coordinates": [
          102.4312474,
          16.8163007
        ]
      },
      "id": "relation/2162548"
    },
    {
      "type": "Feature",
      "properties": {
        "@id": "relation/2172614",
        "addr:district": "บ้านฟาง",
        "addr:district:en": "Ban Fang",
        "addr:hamlet": "หมู่ที่ 8",
        "addr:province": "ขอนแก่น",
        "addr:province:en": "Khon Kaen",
        "addr:subdistrict": "ป่าหวายนั่ง",
        "addr:subdistrict:en": "Pa Wai Nang",
        "landuse": "forest",
        "name": "วัดป่าบ้านโสกแต้",
        "name:en": "Wat Pa Ban Sok Tae",
        "source": "Bing; sign",
        "type": "multipolygon",
        "@geometry": "center"
      },
      "geometry": {
        "type": "Point",
        "coordinates": [
          102.6945441,
          16.633553
        ]
      },
      "id": "relation/2172614"
    },
    {
      "type": "Feature",
      "properties": {
        "@id": "relation/2172615",
        "addr:district": "อุบลรัตน์",
        "addr:district:en": "Ubonrat",
        "addr:province": "ขอนแก่น",
        "addr:province:en": "Khon Kaen",
        "addr:subdistrict": "โคกสูง",
        "addr:subdistrict:en": "Khok Sung",
        "landuse": "forest",
        "name": "วัดป่าพูวัด",
        "name:en": "Wat Pa Phu Wat",
        "source": "Bing; sign",
        "type": "multipolygon",
        "@geometry": "center"
      },
      "geometry": {
        "type": "Point",
        "coordinates": [
          102.6972378,
          16.6620437
        ]
      },
      "id": "relation/2172615"
    },
    {
      "type": "Feature",
      "properties": {
        "@id": "relation/2172616",
        "addr:district": "เมืองขอนแกน",
        "addr:district:en": "Mueang Khon Kaen",
        "addr:province": "ขอนแก่น",
        "addr:province:en": "Khon Kaen",
        "addr:subdistrict": "สำราญ",
        "addr:subdistrict:en": "Samran",
        "landuse": "forest",
        "name": "วัดป่าสว่างสันติธรรม",
        "name:en": "Wat Pa Sawang Santi Tham",
        "source": "Bing; sign",
        "type": "multipolygon",
        "@geometry": "center"
      },
      "geometry": {
        "type": "Point",
        "coordinates": [
          102.8123639,
          16.5501426
        ]
      },
      "id": "relation/2172616"
    },
    {
      "type": "Feature",
      "properties": {
        "@id": "relation/2172620",
        "addr:district": "เมืองขอนแกน",
        "addr:district:en": "Mueang Khon Kaen",
        "addr:hamlet": "หมู่ที่ 9",
        "addr:province": "ขอนแก่น",
        "addr:province:en": "Khon Kaen",
        "addr:subdistrict": "บ้านค้อ",
        "addr:subdistrict:en": "Ban Kho",
        "landuse": "forest",
        "name": "วัดศรีนวล",
        "name:en": "Wat Sin Won",
        "source": "Bing; sign",
        "type": "multipolygon",
        "@geometry": "center"
      },
      "geometry": {
        "type": "Point",
        "coordinates": [
          102.8066814,
          16.5431558
        ]
      },
      "id": "relation/2172620"
    },
    {
      "type": "Feature",
      "properties": {
        "@id": "relation/2172680",
        "landuse": "forest",
        "source": "Bing",
        "type": "multipolygon",
        "@geometry": "center"
      },
      "geometry": {
        "type": "Point",
        "coordinates": [
          102.691565,
          16.6332166
        ]
      },
      "id": "relation/2172680"
    },
    {
      "type": "Feature",
      "properties": {
        "@id": "relation/2172705",
        "landuse": "forest",
        "source": "Bing",
        "type": "multipolygon",
        "@geometry": "center"
      },
      "geometry": {
        "type": "Point",
        "coordinates": [
          102.7661365,
          16.5469631
        ]
      },
      "id": "relation/2172705"
    },
    {
      "type": "Feature",
      "properties": {
        "@id": "relation/2173773",
        "addr:district": "ศรีบุญเรือง",
        "addr:district:en": "Si Bun Rueang",
        "addr:hamlet": "หมู่ที่ 3",
        "addr:province": "หนองบัวลำภู",
        "addr:province:en": "Nong Bua Lam Phu",
        "addr:subdistrict": "หนองบัวใด้",
        "addr:subdistrict:en": "Nong Bua Dai",
        "landuse": "forest",
        "name": "วัดป่าจันโทนประสิทธิ์",
        "name:en": "Wat Pa Chan Thon Prasit",
        "source": "Bing; sign",
        "type": "multipolygon",
        "@geometry": "center"
      },
      "geometry": {
        "type": "Point",
        "coordinates": [
          102.3706183,
          16.893292
        ]
      },
      "id": "relation/2173773"
    },
    {
      "type": "Feature",
      "properties": {
        "@id": "relation/2173774",
        "addr:district": "ศรีบุญเรือง",
        "addr:district:en": "Si Bun Rueang",
        "addr:hamlet": "หมู่ที่ 8",
        "addr:province": "หนองบัวลำภู",
        "addr:province:en": "Nong Bua Lam Phu",
        "addr:subdistrict": "ศรีบุญเรือง",
        "addr:subdistrict:en": "Si Bun Rueang",
        "landuse": "forest",
        "name": "วัดป่าศิลาเขตวนาราม",
        "name:en": "Wat Pa Sila Khet Wana Ram",
        "source": "Bing; sign",
        "type": "multipolygon",
        "@geometry": "center"
      },
      "geometry": {
        "type": "Point",
        "coordinates": [
          102.2693293,
          16.9042618
        ]
      },
      "id": "relation/2173774"
    },
    {
      "type": "Feature",
      "properties": {
        "@id": "relation/2176078",
        "landuse": "forest",
        "source": "Bing",
        "type": "multipolygon",
        "@geometry": "center"
      },
      "geometry": {
        "type": "Point",
        "coordinates": [
          102.2779755,
          16.8860878
        ]
      },
      "id": "relation/2176078"
    },
    {
      "type": "Feature",
      "properties": {
        "@id": "relation/2176098",
        "landuse": "forest",
        "source": "Bing",
        "type": "multipolygon",
        "@geometry": "center"
      },
      "geometry": {
        "type": "Point",
        "coordinates": [
          102.3557252,
          16.7663297
        ]
      },
      "id": "relation/2176098"
    },
    {
      "type": "Feature",
      "properties": {
        "@id": "relation/2177540",
        "addr:district": "หนองนาคำ",
        "addr:district:en": "Nong Na Kham",
        "addr:hamlet": "หมู่ที่ 1",
        "addr:province": "ขอนแก่น",
        "addr:province:en": "Khon Kaen",
        "addr:subdistrict": "ขนวน",
        "addr:subdistrict:en": "Khon Won",
        "landuse": "forest",
        "name": "วัดป่าพรรณศรีสุทธาวาส",
        "name:en": "Wat Pa Phan Si Sutthawat",
        "source": "Bing; sign",
        "type": "multipolygon",
        "@geometry": "center"
      },
      "geometry": {
        "type": "Point",
        "coordinates": [
          102.3675963,
          16.783951
        ]
      },
      "id": "relation/2177540"
    },
    {
      "type": "Feature",
      "properties": {
        "@id": "relation/2177541",
        "addr:district": "ภูเวียง",
        "addr:district:en": "Phu Wiang",
        "addr:province": "ขอนแก่น",
        "addr:province:en": "Khon Kaen",
        "addr:subdistrict": "ดินดำ",
        "addr:subdistrict:en": "Dindam",
        "landuse": "forest",
        "name": "วัดป่าพุทธนิมิตรังษี",
        "name:en": "Wat Pa Phut Nimit Rang Si",
        "source": "Bing; sign",
        "type": "multipolygon",
        "@geometry": "center"
      },
      "geometry": {
        "type": "Point",
        "coordinates": [
          102.4198557,
          16.7295869
        ]
      },
      "id": "relation/2177541"
    },
    {
      "type": "Feature",
      "properties": {
        "@id": "relation/2177542",
        "addr:district": "ภูเวียง",
        "addr:district:en": "Phu Wiang",
        "addr:hamlet": "หมู่ที่ 4",
        "addr:province": "ขอนแก่น",
        "addr:province:en": "Khon Kaen",
        "addr:subdistrict": "บ้านเรือ",
        "addr:subdistrict:en": "Ban Ruea",
        "landuse": "forest",
        "name": "วัดสันติวนาราม",
        "name:en": "Wat Santi Wana Ram",
        "source": "Bing; sign",
        "type": "multipolygon",
        "@geometry": "center"
      },
      "geometry": {
        "type": "Point",
        "coordinates": [
          102.3846453,
          16.7247881
        ]
      },
      "id": "relation/2177542"
    },
    {
      "type": "Feature",
      "properties": {
        "@id": "relation/2177543",
        "addr:district": "ภูเวียง",
        "addr:district:en": "Phu Wiang",
        "addr:province": "ขอนแก่น",
        "addr:province:en": "Khon Kaen",
        "addr:subdistrict": "บ้านเรือ",
        "addr:subdistrict:en": "Ban Ruea",
        "landuse": "forest",
        "name": "วัดป่าห้วยชันพัฒนาราม",
        "name:en": "Wat Pa Huai Chan Phatthana Ram",
        "source": "Bing; sign",
        "type": "multipolygon",
        "@geometry": "center"
      },
      "geometry": {
        "type": "Point",
        "coordinates": [
          102.3870971,
          16.7041198
        ]
      },
      "id": "relation/2177543"
    },
    {
      "type": "Feature",
      "properties": {
        "@id": "relation/2177609",
        "landuse": "forest",
        "source": "Bing",
        "type": "multipolygon",
        "@geometry": "center"
      },
      "geometry": {
        "type": "Point",
        "coordinates": [
          102.4290141,
          16.7500947
        ]
      },
      "id": "relation/2177609"
    },
    {
      "type": "Feature",
      "properties": {
        "@id": "relation/2180097",
        "landuse": "forest",
        "name": "วัดป่าสาลาวัน",
        "name:en": "Wat Pa Sa La Wan",
        "source": "Bing; sign",
        "type": "multipolygon",
        "@geometry": "center"
      },
      "geometry": {
        "type": "Point",
        "coordinates": [
          102.0730756,
          14.9669146
        ]
      },
      "id": "relation/2180097"
    },
    {
      "type": "Feature",
      "properties": {
        "@id": "relation/2180098",
        "landuse": "forest",
        "name": "วัดป่าหลักร้อย",
        "name:en": "Wat Pa Lak Roi",
        "source": "Bing; sign",
        "type": "multipolygon",
        "@geometry": "center"
      },
      "geometry": {
        "type": "Point",
        "coordinates": [
          102.0715183,
          15.171351
        ]
      },
      "id": "relation/2180098"
    },
    {
      "type": "Feature",
      "properties": {
        "@id": "relation/2182579",
        "addr:district": "บ้านแฮด",
        "addr:district:en": "Ban Haet",
        "addr:hamlet": "หมู่ที่ 7",
        "addr:province": "ขอนแก่น",
        "addr:province:en": "Khon Kaen",
        "addr:subdistrict": "บ้านแฮด",
        "addr:subdistrict:en": "Ban Haet",
        "landuse": "forest",
        "name": "วัดสาธรอักขราราม",
        "name:en": "Wat Sa Thon Ak Khara Ram",
        "source": "Bing; sign",
        "type": "multipolygon",
        "@geometry": "center"
      },
      "geometry": {
        "type": "Point",
        "coordinates": [
          102.7636712,
          16.2043117
        ]
      },
      "id": "relation/2182579"
    },
    {
      "type": "Feature",
      "properties": {
        "@id": "relation/2182915",
        "addr:district": "บ้านไผ่",
        "addr:district:en": "Ban Phai",
        "addr:hamlet": "หมู่ที่ 4",
        "addr:province": "ขอนแก่น",
        "addr:province:en": "Khon Kaen",
        "addr:subdistrict": "ภูเหล็ก",
        "addr:subdistrict:en": "Phu Lek",
        "landuse": "forest",
        "name": "วัดป่าพุทธพิทักษ์วนาราม",
        "name:en": "Wat Pa Phut Phithak Wana Ram",
        "source": "Bing; sign",
        "type": "multipolygon",
        "@geometry": "center"
      },
      "geometry": {
        "type": "Point",
        "coordinates": [
          102.8064969,
          16.0706275
        ]
      },
      "id": "relation/2182915"
    },
    {
      "type": "Feature",
      "properties": {
        "@id": "relation/2182916",
        "addr:district": "บ้านไผ่",
        "addr:district:en": "Ban Phai",
        "addr:hamlet": "หมู่ที่ 3",
        "addr:province": "ขอนแก่น",
        "addr:province:en": "Khon Kaen",
        "addr:subdistrict": "ภูเหล็ก",
        "addr:subdistrict:en": "Phu Lek",
        "landuse": "forest",
        "name": "วัดป่าภูเหล็กน้อย",
        "name:en": "Wat Pa Phu Lek Noi",
        "source": "Bing; sign",
        "type": "multipolygon",
        "@geometry": "center"
      },
      "geometry": {
        "type": "Point",
        "coordinates": [
          102.8397538,
          16.0944656
        ]
      },
      "id": "relation/2182916"
    },
    {
      "type": "Feature",
      "properties": {
        "@id": "relation/2188210",
        "addr:district": "โนนศิลา",
        "addr:district:en": "Non Sila",
        "addr:hamlet": "หมู่ที่ 3",
        "addr:province": "ขอนแก่น",
        "addr:province:en": "Khon Kaen",
        "addr:subdistrict": "บ้านหัน",
        "addr:subdistrict:en": "Ban Han",
        "landuse": "forest",
        "name": "วัดป่าสนติวนาราม",
        "name:en": "Wat Pa Son Ti Wana Ram",
        "source": "Bing; sign",
        "type": "multipolygon",
        "@geometry": "center"
      },
      "geometry": {
        "type": "Point",
        "coordinates": [
          102.7071918,
          15.9661464
        ]
      },
      "id": "relation/2188210"
    },
    {
      "type": "Feature",
      "properties": {
        "@id": "relation/2188654",
        "addr:district": "พน",
        "addr:district:en": "Phon",
        "addr:hamlet": "หมู่ที่ 2",
        "addr:province": "ขอนแก่น",
        "addr:province:en": "Khon Kaen",
        "addr:subdistrict": "โจดหนองแก",
        "addr:subdistrict:en": "Chot Nong Kae",
        "landuse": "forest",
        "name": "วัดรักชิตวัน",
        "name:en": "Wat Rak Chit Wan",
        "source": "Bing; sign",
        "type": "multipolygon",
        "@geometry": "center"
      },
      "geometry": {
        "type": "Point",
        "coordinates": [
          102.6601976,
          15.8609737
        ]
      },
      "id": "relation/2188654"
    },
    {
      "type": "Feature",
      "properties": {
        "@id": "relation/2199923",
        "landuse": "forest",
        "source": "Bing",
        "type": "multipolygon",
        "@geometry": "center"
      },
      "geometry": {
        "type": "Point",
        "coordinates": [
          102.4356743,
          15.7312062
        ]
      },
      "id": "relation/2199923"
    },
    {
      "type": "Feature",
      "properties": {
        "@id": "relation/2199924",
        "landuse": "forest",
        "source": "Bing",
        "type": "multipolygon",
        "@geometry": "center"
      },
      "geometry": {
        "type": "Point",
        "coordinates": [
          102.4283255,
          15.7378743
        ]
      },
      "id": "relation/2199924"
    },